City_ID,City,Country,Max Temp,Current Description,Lat,Lng,Hotel Name
0,Puerto Ayora,EC,82.36,few clouds,-0.7393,-90.3518,Finch Bay Galapagos Hotel
2,Kapaa,US,80.58,light rain,22.0752,-159.319,Sheraton Kauai Coconut Beach Resort
3,Faanui,PF,77.79,clear sky,-16.4833,-151.75,Bora-Bora Pearl Beach Resort & Spa
4,Jamestown,US,80.19,few clouds,42.097,-79.2353,Hampton Inn & Suites Jamestown
10,Butaritari,KI,83.79,overcast clouds,3.0707,172.7902,Isles Sunset Lodge
17,Gravelbourg,CA,79.07,clear sky,49.8834,-106.5512,Historic Bishops Residence Bed & Breakfast
18,Sao Joao Da Barra,BR,77.09,clear sky,-21.6403,-41.0511,Pousada Porto De Canoas
22,Koumac,NC,67.93,clear sky,-20.5667,164.2833,Le Monitel
24,Hilo,US,86.29,light rain,19.7297,-155.09,Hilo Hawaiian Hotel
27,Vaini,TO,69.96,fog,-21.2,-175.2,Keleti Beach Resort
30,Saint-Philippe,RE,69.39,light rain,-21.3585,55.7679,"Chambres d'hôte ""La Trinité"""
31,Xining,CN,65.1,overcast clouds,36.6167,101.7667,Super Leisure Hotel
32,Mahebourg,MU,70.09,light intensity shower rain,-20.4081,57.7,Shandrani Beachcomber Resort & Spa
33,Sovetskaya Gavan,RU,66.47,broken clouds,48.9723,140.2878,"Хостел ""Пилигрим"""
34,Castro,BR,69.6,clear sky,-24.7911,-50.0119,CHACARA BAILLY
38,San Cristobal,VE,82.58,overcast clouds,7.7669,-72.225,Posada Villaven C.A.
39,Kluang,MY,82.13,overcast clouds,2.0251,103.3328,Hotel Anika
40,Hithadhoo,MV,82.17,few clouds,-0.6,73.0833,Scoop Guest House
41,Mishan,CN,72.18,broken clouds,45.55,131.8833,Mishan Hotel
42,Atuona,PF,78.31,broken clouds,-9.8,-139.0333,Villa Enata
43,Georgetown,MY,84.88,few clouds,5.4112,100.3354,Cititel Penang
46,Lasa,IT,76.91,scattered clouds,46.6166,10.7002,Pension Feldgärtenhof
50,Thompson,CA,68.16,broken clouds,55.7435,-97.8558,Burntwood Hotel
51,Gat,IL,82.81,clear sky,31.61,34.7642,OlusHome
53,Rikitea,PF,69.03,clear sky,-23.1203,-134.9692,People ThankYou
56,Yuanping,CN,69.57,clear sky,38.7153,112.7575,Yuanping Xinghe Guesthouse
58,Lasem,ID,73.94,clear sky,-6.6922,111.4527,"Nyah Lasem | Museum, Guest House & Community Center"
59,Pimentel,PE,71.89,broken clouds,-6.8367,-79.9342,Casona Del Muelle
62,Carutapera,BR,79.2,overcast clouds,-1.195,-46.02,Lidera
64,Lorengau,PG,80.74,clear sky,-2.0226,147.2712,Lorengau Harbourside Hotel
66,Port-Cartier,CA,65.75,clear sky,50.0334,-66.8654,Le Q'Artier
72,Majene,ID,74.88,scattered clouds,-3.5403,118.9707,Kost Putri RABBANI
74,Kloulklubed,PW,82.9,overcast clouds,7.0419,134.2556,Storyboard Beach Resort
80,Arraial Do Cabo,BR,76.96,clear sky,-22.9661,-42.0278,Pousada Porto Praia
83,Harper,LR,76.41,overcast clouds,4.375,-7.7169,Screensaver
84,Sao Pedro Do Sul,BR,83.05,scattered clouds,-29.6206,-54.1789,Sítio Hotel e Eventos
88,Pathein,MM,79.12,overcast clouds,16.7833,94.7333,New Pammawaddy Hotel
92,Padang,ID,77.43,broken clouds,-0.9492,100.3543,Mercure Padang
97,Ribeira Grande,PT,73.8,broken clouds,38.5167,-28.7,Quinta da Meia Eira
98,Cidreira,BR,66.09,clear sky,-30.1811,-50.2056,Hotel Castelo
99,North Bend,US,79.95,clear sky,43.4065,-124.2243,Red Lion Hotel Coos Bay
100,Iranshahr,IR,86.34,broken clouds,27.2025,60.6848,پلکه بزرگ
101,Road Town,VG,82.2,scattered clouds,18.4167,-64.6167,"ZINGARA 76ft Catamaran, full crew-all included"
104,Vila Velha,BR,75.15,scattered clouds,-20.3297,-40.2925,Quality Suites Vila Velha
107,Touros,BR,86.9,clear sky,-5.1989,-35.4608,INN NEW HORIZON
110,Port Huron,US,87.15,scattered clouds,42.9709,-82.4249,Fairfield Inn by Marriott Port Huron
113,Lakatoro,VU,79.18,moderate rain,-16.0999,167.4164,Lakatoro Palm Lodge
114,Half Moon Bay,US,87.82,few clouds,37.4636,-122.4286,"The Ritz-Carlton, Half Moon Bay"
116,Bethel,US,85.08,scattered clouds,41.3712,-73.414,Courtyard by Marriott Danbury
119,Sciacca,IT,86.04,clear sky,37.5082,13.0881,Hotel Aliai
120,Olinda,BR,76.73,scattered clouds,-8.0089,-34.8553,Hotel Albergue de Olinda
122,Muroto,JP,77.52,overcast clouds,33.2833,134.15,Oota Ryokan
123,Derzhavinsk,KZ,76.39,overcast clouds,51.1,66.3167,Ooo.khim Baza
124,Alyangula,AU,69.67,mist,-13.8483,136.4192,Groote Eylandt Lodge
131,Rabo De Peixe,PT,73.27,clear sky,37.8,-25.5833,Quinta das Giestas
134,Saint George,US,87.71,overcast clouds,37.1041,-113.5841,Best Western Plus Abbey Inn
135,Praia Da Vitoria,PT,80.85,scattered clouds,38.7333,-27.0667,Hotel Branco I
137,Roma,US,76.71,overcast clouds,43.2128,-75.4557,Wingate By Wyndham Rome
138,Kuching,MY,79.02,few clouds,1.55,110.3333,The Ranee Boutique Suites
139,Bengkulu,ID,75.38,clear sky,-3.8004,102.2655,Grage Hotel Bengkulu
140,Takab,IR,76.12,clear sky,36.4009,47.1133,مهمانپذیر تخت سلیمان
141,Ratnagiri,IN,79.48,overcast clouds,16.9833,73.3,Hotel Landmark
142,Bubaque,GW,79.27,light rain,11.2833,-15.8333,"Casa Dora, Bubaque"
145,Avarua,CK,69.85,few clouds,-21.2078,-159.775,Paradise Inn
146,Valente,BR,68.65,overcast clouds,-11.4122,-39.4619,Bel Pousada E Restaurante
148,Auki,SB,77.04,overcast clouds,-8.7676,160.7034,Auki Motel
150,Thyboron,DK,75.18,clear sky,56.6985,8.2124,Thyborøn Hotel
152,Matagami,CA,71.71,clear sky,49.7502,-77.6328,Hôtel Matagami
153,Vao,NC,71.02,clear sky,-22.6667,167.4833,Hotel Kou-Bugny
154,Bandarbeyla,SO,77.74,few clouds,9.4942,50.8122,JABIR HOTEL
157,Fortuna,US,85.42,clear sky,40.5982,-124.1573,Super 8 by Wyndham Fortuna
158,Namibe,AO,66.27,clear sky,-15.1961,12.1522,Hotel Chik Chik Namibe
159,Owando,CG,81.95,overcast clouds,-0.4819,15.8999,Exaunel Hotel Owando
161,Souillac,MU,70.18,light intensity shower rain,-20.5167,57.5167,Shanti Maurice Resort & Spa
162,Gambela,ET,70.41,overcast clouds,8.25,34.5833,Solomon Debebe Hotel
163,Singkang,MY,76.89,scattered clouds,2.1006,102.7994,Kampung Seri Makmor Pagoh
166,Dunn,US,87.35,clear sky,44.95,-91.8835,Cedar Falls Acres
167,Kindersley,CA,77.02,clear sky,51.4668,-109.1682,Kindersley Inn
171,Skagen,DK,67.89,scattered clouds,57.7209,10.5839,Ruth's Hotel
172,Qinhuangdao,CN,74.07,few clouds,39.9317,119.5883,Qinhuangdao Peninsula Seasons Hotel And Apartment
174,Vangaindrano,MG,65.62,overcast clouds,-23.35,47.6,Hotel Fanilo
176,Nova Soure,BR,74.32,broken clouds,-11.2333,-38.4833,Branca Hotel
178,Ponta Do Sol,PT,78.71,clear sky,32.6667,-17.1,Hotel do Campo
179,Quatre Cocos,MU,69.91,scattered clouds,-20.2078,57.7625,Sunrise Attitude Hotel
180,Desa,RO,70.59,clear sky,43.8667,23.0333,Pensiunea Balta Sârbilor
181,Kahului,US,79.86,scattered clouds,20.8947,-156.47,Maui Seaside Hotel
182,Jiwani,PK,82.69,overcast clouds,25.05,61.7417,Al Mumtaz Transport Jiwani
188,Acarau,BR,84.29,scattered clouds,-2.8856,-40.12,castelo pizzaria
190,Les Cayes,HT,86.95,overcast clouds,18.2,-73.75,Villa Orphee
192,Rio Grande,BR,78.91,broken clouds,-32.035,-52.0986,Hotel Atlântico Rio Grande
194,Omboue,GA,73.62,broken clouds,-1.5746,9.2618,Hotel Olako
195,Poum,NC,71.91,clear sky,-20.2333,164.0167,Gîte kajeon
196,Itoman,JP,80.98,mist,26.1247,127.6694,Southern Beach Hotel & Resort Okinawa
197,Labuhan,ID,73.33,clear sky,-6.8844,112.2051,PT PPI Lamongan Tambak C
198,Pitsunda,GE,73.58,clear sky,43.1592,40.3378,Hotel FREEDOM
201,Manokwari,ID,78.22,overcast clouds,-0.8667,134.0833,Swiss Belhotel Manokwari
203,Bachaquero,VE,86.7,overcast clouds,9.9694,-71.1494,casa de los dinosaurios
204,Chimbote,PE,67.42,scattered clouds,-9.0853,-78.5783,Hotel Viera Chimbote
205,Santa Rosa,PH,80.91,overcast clouds,14.3122,121.1114,Erlyn’s Sta Rosa City Home
206,Campos Do Jordao,BR,72.95,clear sky,-22.7394,-45.5914,Canada Lodge Inn
208,Miranda,CO,69.93,overcast clouds,3.2499,-76.2281,unidiversidad organica la utopia
217,Ha Noi,VN,82.4,scattered clouds,21.0245,105.8412,Sofitel Legend Metropole Hanoi
218,Inirida,CO,77.38,moderate rain,3.8653,-67.9239,Fuente del Guania Hotel de Lujo
219,Shelburne,CA,69.76,moderate rain,44.0787,-80.2041,The Retreat at the Farm
221,Greensburg,US,84.94,scattered clouds,40.3015,-79.5389,Rodeway Inn
223,Andros Town,BS,85.96,overcast clouds,24.7,-77.7667,Hanks place
224,Mana,GF,81.05,moderate rain,5.6592,-53.7767,LE SAMANA
228,Adjumani,UG,66.92,light rain,3.3779,31.7909,Hotel Zawadi
230,Banda Aceh,ID,80.64,overcast clouds,5.5577,95.3222,Sulthan Hotel International
235,Torbay,CA,68.88,light rain,47.6666,-52.7314,Gallows Cove
236,Samarai,PG,79.11,broken clouds,-10.6167,150.6667,Nuli Sapi
237,Shaunavon,CA,79.75,clear sky,49.6501,-108.4181,Bear's Den Lodge
239,Sioux Lookout,CA,80.98,smoke,50.1001,-91.917,Knobby's Fly-In Camps
240,Caravelas,BR,74.53,broken clouds,-17.7125,-39.2481,Pousada dos Navegantes
241,Sharqpur,PK,87.93,few clouds,31.4633,74.1,Salim's Dental Clinic..Dr.Awais
243,Cabedelo,BR,81.27,clear sky,-6.9811,-34.8339,Hotel Pigalle
244,Port Blair,IN,82.22,overcast clouds,11.6667,92.75,"Welcomhotel By ITC Hotels, Bay Island, Port Blair"
245,Kavieng,PG,81.32,light rain,-2.5744,150.7967,Nusa Island Retreat
246,Isabela,PH,80.65,overcast clouds,6.7085,121.9711,Isawad Resort
247,Svetlogorsk,BY,68.05,overcast clouds,52.6333,29.7333,Hotel Svetlogorsk JBIK
252,Lompoc,US,85.01,scattered clouds,34.6391,-120.4579,"Holiday Inn Express Lompoc, an IHG Hotel"
253,Esterhazy,CA,77.85,clear sky,50.65,-102.0843,Canalta Hotel Esterhazy
254,Savannah Bight,HN,87.85,overcast clouds,16.45,-85.85,Villa on Dunbar Rock
255,Sinnamary,GF,81.7,heavy intensity rain,5.3833,-52.95,ALETHEIA Appartement Sinnamary
256,Arvika,SE,68.5,few clouds,59.6553,12.5852,Clarion Collection Hotel Bristol
257,Linhai,CN,76.93,moderate rain,28.85,121.1167,Linhai S&N International Hotel
258,Marsh Harbour,BS,78.57,overcast clouds,26.5412,-77.0636,Abaco Beach Resort
259,Blagoveshchenka,RU,67.39,few clouds,52.8333,79.8667,"Gostinitsa ""Tsentral'naya"""
261,Pisco,PE,68.05,few clouds,-13.7,-76.2167,Hotel San Isidro Oficial
264,Varena,LT,68.65,broken clouds,54.2167,24.5667,"EKORATAS, UAB viešbutis Varėna"
265,Alofi,NU,71.49,clear sky,-19.0595,-169.9187,Taloa Heights
266,Dandong,CN,71.76,scattered clouds,40.1292,124.3947,Yiranju Farmstay
269,Maragheh,IR,80.87,clear sky,37.3917,46.2398,Maragheh Grand Hotel
270,Nanakuli,US,80.55,overcast clouds,21.3906,-158.1547,Camp Pālehua
271,Mineiros,BR,85.21,clear sky,-17.5694,-52.5511,Pilões Palace Hotel
273,Siderno,IT,82.99,clear sky,38.2779,16.302,Grand Hotel President
276,Hudson Bay,CA,79.23,overcast clouds,52.85,-102.3842,Norwood Motel LTD
277,Noumea,NC,70.0,clear sky,-22.2763,166.4572,Hôtel Le Lagon
278,Hambantota,LK,79.14,broken clouds,6.1241,81.1185,Bungalow 63
279,Vaitape,PF,77.58,light rain,-16.5167,-151.75,Conrad Bora Bora Nui
281,Puerto Baquerizo Moreno,EC,73.22,scattered clouds,-0.9,-89.6,Hotel los Algarrobos
282,Shimanovsk,RU,66.74,light rain,52.0,127.7,Гостиница Домашняя
286,Bambous Virieux,MU,70.05,light intensity shower rain,-20.3428,57.7575,Casa Tia Villa
288,Xinxiang,CN,76.86,clear sky,35.3089,113.8672,Guoyu Holiday Inn
289,Shimoda,JP,75.99,clear sky,34.6667,138.95,Shimoda Tokyu Hotel
290,Dingle,PH,78.12,overcast clouds,10.9995,122.6711,SEGAYA PROPERTY
293,Grand Gaube,MU,71.83,clear sky,-20.0064,57.6608,Veranda Paul et Virginie Hotel & Spa
299,Kununurra,AU,70.63,overcast clouds,-15.7667,128.7333,Hotel Kununurra
305,Uzventis,LT,69.87,clear sky,55.7803,22.6547,"Rezaliu sodyba, Penktas sezonas"
307,Buala,SB,79.66,moderate rain,-8.145,159.5921,Maringe Lagoon Lodge
308,Chapais,CA,77.95,overcast clouds,49.7834,-74.8492,Hôtel Opémiska
309,Bien Hoa,VN,82.38,overcast clouds,10.95,106.8167,OYO 991 Duy Anh Hotel
310,Babu,CN,77.47,few clouds,24.4167,111.5167,IU Hotel Hezhou Bus Terminal
314,Hovd,MN,67.03,scattered clouds,48.0056,91.6419,Hotel Khovd
318,Muros,ES,71.15,few clouds,42.7762,-9.0603,Apartment Av. Castelao
319,Birjand,IR,84.67,clear sky,32.8663,59.2211,Birjand Tourist Hotel
321,Eregli,TR,68.13,clear sky,37.5133,34.0467,Hotel Fuat Bey
322,Phangnga,TH,86.92,light rain,8.4509,98.5298,Sunimit Mansion
323,San-Pedro,CI,75.11,broken clouds,4.7485,-6.6363,Hotel Maria
324,San Policarpo,PH,80.71,overcast clouds,12.1791,125.5072,JM Lodge
326,Dongying,CN,78.85,broken clouds,37.4564,118.4856,Wanda Realm
334,Kandrian,PG,77.65,scattered clouds,-6.2167,149.55,Kandrian Station
335,Kirakira,SB,79.18,overcast clouds,-10.4544,161.9205,SanBiz Lodge
336,Kontagora,NG,73.72,overcast clouds,10.3999,5.4695,Queens Guest Inn
337,Makinsk,KZ,66.45,overcast clouds,52.6292,70.4169,Bereke
338,Nhulunbuy,AU,66.81,scattered clouds,-12.2333,136.7667,East Arnhem Real Estate
339,Cayenne,GF,75.24,broken clouds,4.9333,-52.3333,Hôtel Le Dronmi
340,Karratha,AU,69.75,overcast clouds,-20.7377,116.8463,ibis Styles Karratha
341,Cairns,AU,67.95,scattered clouds,-16.9167,145.7667,Mantra Trilogy Cairns
343,Iquitos,PE,86.61,few clouds,-3.7481,-73.2472,Casa Morey Hotel & Restaurant
344,Roald,NO,69.85,overcast clouds,62.5833,6.1333,Flem Cabins
347,Galle,LK,78.93,overcast clouds,6.0367,80.217,Amangalla
348,Esil,KZ,70.21,overcast clouds,51.9556,66.4042,Egorkino Hotel
349,Lagoa,PT,71.56,overcast clouds,39.05,-27.9833,Casa Das Faias
350,Isiro,CD,67.28,overcast clouds,2.7739,27.616,Guest House Hewa Bora
351,Xinglongshan,CN,72.05,overcast clouds,43.9561,125.4661,Fashion Hotel
354,Los Llanos De Aridane,ES,71.13,few clouds,28.6585,-17.9182,Valle Aridane
355,Asyut,EG,87.96,clear sky,27.181,31.1837,Florence Hotel Assiut
356,Shankargarh,IN,83.93,clear sky,25.1833,81.6167,Akash. Tea. Stal
357,Asifabad,IN,77.67,overcast clouds,19.3667,79.2833,సిడం కైలాష్
358,Westport,US,86.07,clear sky,41.1415,-73.3579,The Westport Inn
362,Moroni,KM,73.54,light rain,-11.7022,43.2551,Hotel les Arcades
365,Cockburn Town,TC,87.76,scattered clouds,21.4612,-71.1419,Osprey Beach Hotel
367,Itarema,BR,83.59,scattered clouds,-2.9248,-39.9167,"Sea Lounge! Bar, Club & Restaurant"
368,Khandbari,NP,73.62,broken clouds,27.3747,87.2039,Sainik Hotel And Lodge
369,Benxi,CN,70.12,clear sky,41.2886,123.765,Yaju Business Hotel
372,Ponta Delgada,PT,74.12,few clouds,37.7333,-25.6667,Vila Nova Hotel
373,Joacaba,BR,78.28,clear sky,-27.1781,-51.5047,Hotel Jaraguá
374,Miri,MY,79.12,broken clouds,4.4148,114.0089,"Mega Hotel, Miri"
375,Atikokan,CA,85.28,clear sky,48.7555,-91.6216,Quetico Inn (formerly Radisson)
378,Caceres,ES,82.8,clear sky,39.522,-6.3748,Ahc Hoteles
381,Trairi,BR,83.53,scattered clouds,-3.2778,-39.2689,janelas do mar
382,Kerema,PG,75.15,few clouds,-7.9631,145.7785,Frena Lodge
383,Ponferrada,ES,72.28,few clouds,42.5466,-6.5962,Hotel Temple Ponferrada
384,Lata,PT,77.04,broken clouds,40.1629,-8.3327,Casa Maquia
385,Galeana,MX,79.05,clear sky,24.8333,-100.0667,Mirador
386,Ishigaki,JP,84.25,overcast clouds,24.3448,124.1572,Hotel Peace Land Ishigakijima
387,Rosarito,MX,84.58,overcast clouds,32.3333,-117.0333,Hotel Festival Plaza Rosarito
392,Vila Franca Do Campo,PT,73.81,clear sky,37.7167,-25.4333,Pestana Bahia Praia
395,Lanxi,CN,76.96,light rain,29.2195,119.477,Shangri-La Hotel
396,Saint-Paul,RE,68.74,light rain,-21.0096,55.2707,Boucan Canot
397,Seoni,IN,73.69,overcast clouds,22.0833,79.5333,STARiHOTELS Nehru Road Seoni
398,Xiaoweizhai,CN,69.57,overcast clouds,26.1903,107.5125,Karst Youth Hostel
399,Xuzhou,CN,74.32,broken clouds,34.1805,117.1571,Thank Inn Chain Hotel Jiangsu xuzhou tongshan district Beijing south road
400,Hasaki,JP,75.6,clear sky,35.7333,140.8333,Hotel Sunrise Choshi
401,Budureasa,RO,73.81,clear sky,46.6667,22.5,Pensiunea Villa Diva
403,Linhares,BR,75.54,few clouds,-19.3911,-40.0722,Hotel Conceição
404,Jieshi,CN,84.94,light rain,22.8134,115.8257,Yuehai Hotel
405,Pasni,PK,81.97,overcast clouds,25.2631,63.471,Kashmiri Hotal
406,San Andres,CO,81.91,overcast clouds,12.5847,-81.7006,Hotel Arena Blanca
409,Katsuura,JP,80.11,clear sky,35.1333,140.3,Katsuura Hotel Mikazuki
416,Calabar,NG,74.1,light rain,4.9517,8.322,NAKS Hotels (Formerly NAF Club)
417,San Alberto,CO,86.97,overcast clouds,7.7611,-73.3922,Hotel San Alberto Plaza
418,Saint-Joseph,RE,67.21,light rain,-21.3667,55.6167,"""Plantation Bed and Breakfast"
422,Santa Flavia,IT,85.62,clear sky,38.085,13.5351,La Caletta
424,Delta Del Tigre,UY,66.61,clear sky,-34.7633,-56.3853,FINCA SUAREZ
427,Sao Filipe,CV,75.0,broken clouds,14.8961,-24.4956,Hotel Xaguate
431,Wencheng,CN,76.12,light rain,33.0559,113.7978,Ruyi Hostel
433,Caucaia,BR,84.15,clear sky,-3.7361,-38.6531,M.O.S. Logística - Filial Fortaleza
434,Meulaboh,ID,77.16,overcast clouds,4.1363,96.1285,Kost Pria
435,La Ronge,CA,71.85,broken clouds,55.1001,-105.2842,Northland Motor Hotel
436,Martapura,ID,73.49,few clouds,-3.4167,114.85,Montana Hotel Syariah
437,Salalah,OM,77.68,overcast clouds,17.0151,54.0924,HAMDAN PLAZA HOTEL SALALAH
438,Manakara,MG,65.57,light rain,-22.1333,48.0167,La Residence Manakara
439,Sayyan,YE,65.53,overcast clouds,15.1718,44.3244,متنزه و بحيرة سيان
440,Luang Prabang,LA,73.72,overcast clouds,19.8856,102.1347,Villa Oasis
442,Zhanaozen,KZ,83.93,clear sky,43.3,52.8,K.korabay 28A
444,Zhangzhou,CN,78.26,overcast clouds,24.5133,117.6556,Borrman Hotel Zhangzhou Bus Station Branch
445,Kathmandu,NP,75.42,broken clouds,27.7167,85.3167,Hotel Shanker Kathmandu
446,Butterworth,MY,84.99,few clouds,5.3991,100.3638,Cititel Penang
448,Bohunovice,CZ,76.77,overcast clouds,49.663,17.2869,Apartment Za Poštou
450,Neiafu,TO,77.68,light rain,-18.65,-173.9833,Mystic Sands Beachfront Accommodation
452,Spasskoye,RU,71.47,overcast clouds,44.6108,132.7969,Garmonist
453,Pyay,MM,77.43,overcast clouds,18.8167,95.2167,Shwe Pyi Thar
455,San Quintin,MX,74.1,overcast clouds,30.4833,-115.95,Don Eddie's Sport Fishing Center
456,Buta,CD,69.98,moderate rain,2.7858,24.73,HOTEL BISO NA BISO
458,Mahon,ES,84.76,clear sky,39.8885,4.2658,ARTIEM Capri
459,Victoria,HK,81.25,moderate rain,22.2855,114.1577,Mini Hotel Central
460,Kieta,PG,78.31,overcast clouds,-6.2167,155.6333,Uruna Bay Retreat
461,Bereda,ES,65.57,scattered clouds,43.2686,-7.5406,Pazo de Verdes
462,Vayalar,IN,76.98,few clouds,9.7,76.3333,Vasundhara Sarovar Premiere
464,Gardez,AF,73.02,clear sky,33.5974,69.2259,زرمت سهاک سیاحتی شرکت TRAVEL AGANCY
466,Jonkoping,SE,73.11,broken clouds,57.7814,14.1562,Scandic Portalen
467,Asau,RO,65.39,few clouds,46.4333,26.4,Casa Mika Ciobanus
468,Capoterra,IT,81.57,clear sky,39.1763,8.9718,Ariedo Bed And Breakfast
470,Salisbury,GB,70.45,scattered clouds,51.0693,-1.7957,Mercure Salisbury White Hart Hotel
471,Nepa Nagar,IN,77.97,overcast clouds,21.4667,76.4,Rest House Hilltop
473,Sampit,ID,72.41,clear sky,-2.5333,112.95,Aquarius Boutique Hotel Sampit
476,Axim,GH,75.51,broken clouds,4.8699,-2.2405,AXIM BEACH RESORT AND SPA
479,Nouadhibou,MR,68.4,clear sky,20.931,-17.0347,El Medina
480,Ushtobe,KZ,77.83,clear sky,45.2514,77.9838,"Gostinitsa ""Diyar"""
481,Savannakhet,LA,72.86,light rain,16.566,104.751,โรงแรม ริเวอร์ ฟร้อนท์
482,Angoche,MZ,70.61,light rain,-16.2325,39.9086,Guest House HESADA
483,Buchanan,LR,78.76,scattered clouds,5.8808,-10.0467,Kamaneahn Hotel Inc
484,Kalmunai,LK,81.61,overcast clouds,7.4167,81.8167,VS Villa
488,Sairang,IN,74.88,overcast clouds,23.8,92.6667,Aboiha Cottage
489,Gallup,US,75.96,broken clouds,35.5281,-108.7426,El Capitan Motel
490,Kodar,IN,80.87,overcast clouds,16.9833,79.9667,Hotel Athidhi Grand
491,Hirara,JP,83.61,light rain,24.8,125.2833,Hotel Atoll Emerald Miyakojima
493,Barnstaple,GB,70.09,scattered clouds,51.0802,-4.0581,The Park Hotel
494,Mahibadhoo,MV,81.55,overcast clouds,3.7833,72.9667,Omadhoo Inn
496,Grand-Santi,GF,77.65,overcast clouds,4.25,-54.3833,Hotel La Villa Couacou
498,Andijon,UZ,82.26,clear sky,40.7821,72.3442,Bog'ishamol
499,Praya,CV,79.34,broken clouds,14.9215,-23.5087,LT Aparthotel
500,Luanda,AO,70.72,clear sky,-8.8368,13.2343,LANDU MARINEZA LUFUANDU TONI
501,Bell Ville,AR,71.11,clear sky,-32.6259,-62.6887,Hotel Central
503,Peniche,PT,72.88,clear sky,39.3558,-9.3811,Hotel Star inn Peniche
504,Tura,IN,74.64,overcast clouds,25.5198,90.2201,Hotel RIKMAN Continental
505,Pasighat,IN,78.57,overcast clouds,28.0667,95.3333,Siang Guest House
508,Sackville,CA,79.32,clear sky,45.9188,-64.3846,Sackville Bed and Breakfast
510,Sept-Iles,CA,67.05,few clouds,50.2001,-66.3821,Comfort Inn
511,Nha Trang,VN,86.0,broken clouds,12.25,109.1833,Sheraton Nha Trang Hotel & Spa
512,Arys,KZ,86.22,clear sky,42.4252,68.795,Gostinitsa
515,Lapa,BR,74.48,clear sky,-25.7697,-49.7158,Pousada Solar da Lapa
517,Veraval,IN,82.22,overcast clouds,20.9,70.3667,Lords Inn Somnath
518,Sao Jose Da Coroa Grande,BR,77.31,clear sky,-8.8978,-35.1478,Crôa Mares Hotel
522,Kindia,GN,70.56,light rain,10.0569,-12.8658,LES EAUX DE KILISSI
524,Marawi,PH,73.65,few clouds,7.9986,124.2928,Derogongan Residence
525,Gemena,CD,72.81,overcast clouds,3.25,19.7667,Hôtel Goshen
526,Diglur,IN,77.67,overcast clouds,18.55,77.6,YASIN DEGLOOR
528,Abha,SA,66.45,few clouds,18.2164,42.5053,Abha Hotel
529,Kamyaran,IR,80.42,clear sky,34.7956,46.9355,Mobile Adab موبایل ادب
534,Huangmei,CN,76.23,clear sky,30.1924,116.025,Tianxiachan Hotel
535,The Valley,AI,86.14,few clouds,18.217,-63.0578,CeBlue Villas & Beach Resort
539,Hohhot,CN,77.9,overcast clouds,40.8106,111.6522,Sheraton Hohhot Hotel
541,Ushirombo,TZ,70.18,clear sky,-3.4919,31.9639,Kigali Hotel
542,Kavali,IN,86.7,scattered clouds,14.9167,79.9833,Hotel Mourya Paradise
547,Senanga,ZM,65.8,clear sky,-16.1167,23.2667,Zango lodge
548,Puerto Del Rosario,ES,78.55,few clouds,28.5004,-13.8627,Hotel JM Puerto del Rosario
552,Komsomolskiy,UZ,81.82,clear sky,40.4272,71.7189,Ikathouse
554,Svetlyy,RU,66.25,clear sky,54.675,20.1347,"Gostinitsa-Kafe, Alena"
556,Ipixuna,BR,87.75,overcast clouds,-1.7625,-48.8043,Casa da Oscarina
557,Huesca,ES,82.09,clear sky,42.1362,-0.4087,Hotel Sancho Abarca SPA Huesca
558,Kudahuvadhoo,MV,82.76,overcast clouds,2.6708,72.8944,Niyama Private Islands Maldives
559,Meadow Lake,US,84.7,overcast clouds,34.8014,-106.5436,JKL Inc. R.V Park and Storage
560,Creel,MX,72.77,few clouds,27.75,-107.6333,The Lodge at Creel Hotel & SPA
561,Wuwei,CN,77.29,overcast clouds,37.9281,102.6414,Thank Inn Chain Hotel gansu wuwei liangzhou district xiguan middle road
568,Mogadishu,SO,76.66,few clouds,2.0371,45.3438,Hotel Juba
570,Wabana,CA,69.69,broken clouds,47.6332,-52.9481,Hotel Pavla
571,Mandalgovi,MN,65.01,broken clouds,45.7625,106.2708,В.Ганбат
572,Kagoro,NG,67.15,broken clouds,9.6,8.3833,Palm Garden Hotel
574,Bialogard,PL,74.75,overcast clouds,54.007,15.9875,"""100-SIO"" Apartamenty w Białogardzie"
576,Dong Hoi,VN,79.23,moderate rain,17.4833,106.6,Nam Long Hotel
577,Parati,BR,75.85,clear sky,-23.2178,-44.7131,Che Lagarto Paraty
578,Saint-Pierre,RE,68.29,broken clouds,-21.3393,55.4781,Lindsey Hôtel
580,Matay,EG,86.4,clear sky,28.419,30.7792,Nag Aespen
581,Weinan,CN,75.24,clear sky,34.5036,109.5089,Thank Inn Chain Hotel shanxi weinan linwei district jiefang road
585,Saint-Denis,FR,70.75,mist,48.9167,2.3333,ibis budget Paris Porte de Montmartre
586,Palamos,ES,82.38,clear sky,41.8484,3.1291,Hotel Aubí
588,Sai Buri,TH,77.83,overcast clouds,6.7013,101.6168,ร้าน​ เวดดิ้ง
589,Teruel,ES,80.08,overcast clouds,40.6667,-0.6667,La Parra
590,Lardos,GR,78.62,clear sky,36.0942,28.0157,Lindos Princess Beach Hotel
592,Along,IN,77.18,overcast clouds,28.1667,94.7667,Hotel West
593,Siva,EG,87.78,clear sky,29.2041,25.5195,Qasr Alzaytuna Inn
594,Repatriacion,PY,86.43,clear sky,-25.5333,-55.95,CABAÑA BLANCA AURORA PADEL CLUB
596,Dir,PK,75.09,clear sky,35.2058,71.8756,Sindh Hotal Dir
598,Sokolka,PL,69.66,broken clouds,53.4072,23.5023,Restauracja i Pokoje Gościnne Verde
599,Portland,US,85.69,clear sky,45.5234,-122.6762,Embassy Suites by Hilton Portland Downtown
600,Puertollano,ES,86.09,broken clouds,38.6871,-4.1073,Hotel Puertollano
601,Guatire,VE,84.7,overcast clouds,10.4762,-66.5427,Parque Residencial Canaima I
602,Libato,PH,77.61,overcast clouds,13.8151,121.3346,Balai Ising Garden Resort
603,Zemio,CF,70.59,overcast clouds,5.0314,25.1361,OCHA Office
605,Tautira,PF,78.82,clear sky,-17.7333,-149.15,Pension Oaoa
606,Margate,GB,69.89,overcast clouds,51.3813,1.3862,Premier Inn Margate hotel
607,Beira,MZ,67.37,light rain,-19.8436,34.8389,Beira Terrace Hotel
609,Aquiraz,BR,84.29,scattered clouds,-3.9014,-38.3911,Pousada Rua Camurupim
611,Girne,CY,84.15,clear sky,35.3417,33.3167,Lavanta Residence
612,Camabatela,AO,67.59,clear sky,-8.1881,15.375,Pensão E Restaurantes
614,Dapaong,TG,78.94,light rain,10.8639,0.205,Hotel Caroli
615,Biak,ID,74.52,overcast clouds,-0.9131,122.8766,Penginapan Kim
616,Bay Roberts,CA,70.66,light rain,47.5999,-53.2648,Stonewall Inn
618,Enshi,CN,70.36,scattered clouds,30.3,109.4833,Moevenpick Enshi
620,Luneburg,DE,78.67,overcast clouds,53.25,10.4,Seminaris Hotel Lüneburg
622,Mitsamiouli,KM,75.96,light rain,-11.3847,43.2844,Foyer ADM
624,Lagoa Vermelha,BR,73.04,clear sky,-28.2086,-51.5258,Hotel Kaianã
625,Mizdah,LY,84.15,clear sky,31.4451,12.9801,محمدالمبروك الاريقط
626,Balikpapan,ID,76.14,overcast clouds,-1.2675,116.8289,ibis Balikpapan
627,Sambava,MG,67.53,overcast clouds,-14.2667,50.1667,Melrose
628,Cicero Dantas,BR,74.28,overcast clouds,-10.6,-38.3833,Hotel Beatriz
635,Berwick,US,85.84,overcast clouds,41.0545,-76.2333,The White Birch Inn B & B
637,Tabou,CI,76.39,overcast clouds,4.423,-7.3528,hotêl doufoulougou
638,Sola,VU,79.99,scattered clouds,-13.8833,167.55,Leumerus Bungalows
639,Yatou,CN,75.27,broken clouds,37.15,122.3833,GreenTree Hotel Rongcheng Bus Station
645,Benguela,AO,69.46,clear sky,-12.5763,13.4055,Hotel Praia Morena
646,Lazurne,UA,73.85,clear sky,46.084,32.5295,New Manna Hostel
647,Cuiluan,CN,68.9,moderate rain,47.72,128.648,Shuncheng Hotel
650,Kiunga,PG,71.1,overcast clouds,-6.1219,141.2906,Airport Lodge Kiunga
651,Manadhoo,MV,81.82,overcast clouds,5.7667,73.3833,Vevu Guesthouse
656,Dubrovnik,HR,76.64,clear sky,42.6481,18.0922,Hotel Dubrovnik Palace
657,Najran,SA,87.01,broken clouds,17.4924,44.1277,محمد هادي ال فطيح
659,Salinopolis,BR,82.67,overcast clouds,-0.6136,-47.3561,Salinas Park Resort Maçarico AP101
660,Maitum,PH,77.95,overcast clouds,6.0392,124.4986,Pearl Garden
